[
  {
    "id": "1",
    "name": "M.Grad",
    "category": "Red",
    "postal": "70260", 
    "address": "Svetog Save br. 9",
    "address2": "",
    "city": "M.Grad",
    "phone": "050/220-010",
    "hours1": "Mon to Fri 7:00-20:00",
    "hours2": "Sat 7:00-14:00",
    "lat": "44.413472",
    "lng": "17.081835",
    "hours3": "",
    "featured": "",
    "features": "",
    "date": "10/17/18"
  },
  {
    "id": "2",
    "name": "Banja Luka",
    "category": "Red",
    "state": "Bosnia and Herzegovina",
    "postal": "78101", 
    "address": "Kralja Petra I Karađorđevića 93",
    "address2": "",
    "city": "Banja Luka",
    "phone": "051/246-047",
    "hours1": "Mon to Fri 7:00-20:00",
    "hours2": "Sat 7:00-16:00",
    "lat": "44.771439",
    "lng": "17.189917",
    "hours3": "",
    "featured": "",
    "features": "",
    "date": "10/17/18"
  },
  {
    "id": "3",
    "name": "Banja Luka",
    "category": "Blue",
    "state": "Bosnia and Herzegovina",
    "postal": "78104", 
    "address": "Cara Lazara 23",
    "address2": "",
    "city": "Banja Luka",
    "phone": "051/227-751",
    "hours1": "Mon to Fri 7:00-20:00",
    "hours2": "Sat 7:00-14:00",
    "lat": "44.762927",
    "lng": "17.190872",
    "hours3": "",
    "featured": "",
    "features": "",
    "date": "10/17/18"
  },
  {
    "id": "4",
    "name": "Banja Luka",
    "category": "Blue",
    "state": "Bosnia and Herzegovina",
    "postal": "78107", 
    "address": "Beogradska 9",
    "address2": "",
    "city": "Banja Luka",
    "phone": "051/252-941",
    "hours1": "Mon to Fri 7:00-20:00",
    "hours2": "Sat 7:00-14:00",
    "lat": "44.770130",
    "lng": "17.203274",
    "hours3": "",
    "featured": "",
    "features": "",
    "date": "10/17/18"
  },
  {
    "id": "5",
    "name": "Banja Luka",
    "category": "Blue",
    "state": "Bosnia and Herzegovina",
    "postal": "78111", 
    "address": "Bulevar Vojvode Stepe Stepanovića br. 177",
    "address2": "",
    "city": "Banja Luka",
    "phone": "051/235-975",
    "hours1": "Mon to Fri 7:00-20:00",
    "hours2": "Sat 7:00-14:00",
    "lat": "44.766210",
    "lng": "17.206459",
    "hours3": "",
    "featured": "",
    "features": "",
    "date": "10/17/18"
  },
  {
    "id": "6",
    "name": "Vrbanja",
    "category": "Red",
    "state": "Bosnia and Herzegovina",
    "postal": "78211", 
    "address": "Rade Radića 30",
    "address2": "",
    "city": "Vrbanja",
    "phone": "051/425-016",
    "hours1": "Mon to Fri 7:00-17:00",
    "hours2": "Sat 7:00-14:00",
    "lat": "44.765156",
    "lng": "17.246289",
    "hours3": "",
    "featured": "",
    "features": "",
    "date": "10/17/18"
  },
  {
    "id": "7",
    "name": "Kotor Varoš",
    "category": "Red",
    "state": "Bosnia and Herzegovina",
    "postal": "78220", 
    "address": "Cara Dušana 31",
    "address2": "",
    "city": "Kotor Varoš",
    "phone": "051/784-111",
    "hours1": "Mon to Fri 7:00-17:00",
    "hours2": "Sat 7:00-14:00",
    "lat": "44.615045",
    "lng": "17.372324",
    "hours3": "",
    "featured": "",
    "features": "",
    "date": "10/17/18"
  },
  {
    "id": "8",
    "name": "Laktaši",
    "category": "Red",
    "state": "Bosnia and Herzegovina",
    "postal": "78250", 
    "address": "Karađorđeva 45",
    "address2": "",
    "city": "Laktaši",
    "phone": "051/535-645",
    "hours1": "Mon to Fri 7:00-20:00",
    "hours2": "Sat 7:00-14:00",
    "lat": "44.905202",
    "lng": "17.299506",
    "hours3": "",
    "featured": "",
    "features": "",
    "date": "10/17/18"
  },
  {
    "id": "9",
    "name": "Gradiška",
    "category": "Red",
    "state": "Bosnia and Herzegovina",
    "postal": "78400", 
    "address": "Vidovdanska 10",
    "address2": "",
    "city": "Gradiška",
    "phone": "051/809-112",
    "hours1": "Mon to Fri 7:00-20:00",
    "hours2": "Sat 7:00-14:00",
    "lat": "45.145909",
    "lng": "17.251335",
    "hours3": "",
    "featured": "",
    "features": "",
    "date": "10/17/18"
  },
  {
    "id": "10",
    "name": "Srbac",
    "category": "Red",
    "state": "Bosnia and Herzegovina",
    "postal": "78420", 
    "address": "Mome Vidovića 4",
    "address2": "",
    "city": "Srbac",
    "phone": "051/745-110",
    "hours1": "Mon to Fri 7:00-17:00",
    "hours2": "Sat 7:00-14:00",
    "lat": "45.096945",
    "lng": "17.517357",
    "hours3": "",
    "featured": "",
    "features": "",
    "date": "10/17/18"
  },
  {
    "id": "11",
    "name": "Banja Luka",
    "category": "Red",
    "state": "Bosnia and Herzegovina",
    "postal": "78102", 
    "address": "Braće Podgornika 4b",
    "address2": "",
    "city": "Banja Luka",
    "phone": "051/313-985",
    "hours1": "Mon to Fri 7:00-20:00",
    "hours2": "Sat 7:00-16:00",
    "lat": "44.787063",
    "lng": "17.211520",
    "hours3": "",
    "featured": "",
    "features": "",
    "date": "10/17/18"
  },
  {
    "id": "12",
    "name": "Prijedor",
    "category": "Red",
    "state": "Bosnia and Herzegovina",
    "postal": "79101", 
    "address": "Jovana Raškovića br.10",
    "address2": "",
    "city": "Prijedor",
    "phone": "052/240-270",
    "hours1": "Mon to Fri 7:00-20:00",
    "hours2": "Sat 7:00-18:00",
    "lat": "44.978526",
    "lng": "16.710535",
    "hours3": "",
    "featured": "",
    "features": "",
    "date": "10/17/18"
  },
  {
    "id": "13",
    "name": "Omarska",
    "category": "Red",
    "state": "Bosnia and Herzegovina",
    "postal": "79203", 
    "address": "Kozarska bb.",
    "address2": "",
    "city": "Omarska",
    "phone": "052/331-091",
    "hours1": "Mon to Fri 7:00-15:00",
    "hours2": "Sat 7:00-13:00",
    "lat": "44.891546",
    "lng": "16.900081",
    "hours3": "",
    "featured": "",
    "features": "",
    "date": "10/17/18"
  },
  {
    "id": "14",
    "name": "Novi Grad",
    "category": "Red",
    "state": "Bosnia and Herzegovina",
    "postal": "79220", 
    "address": "Miće Šurlana br.2",
    "address2": "",
    "city": "Novi Grad",
    "phone": "052/720-242",
    "hours1": "Mon to Fri 7:00-20:00",
    "hours2": "Sat 7:00-16:00",
    "lat": "45.048763",
    "lng": "16.382101",
    "hours3": "",
    "featured": "",
    "features": "",
    "date": "10/17/18"
  },
  {
    "id": "15",
    "name": "S. Kostajnica",
    "category": "Red",
    "state": "Bosnia and Herzegovina",
    "postal": "79224", 
    "address": "Svetosavska 15",
    "address2": "",
    "city": "S. Kostajnica",
    "phone": "052/664-232",
    "hours1": "8:00- 15:00",
    "hours2": "Sat 8:00- 13:00",
    "lat": "45.218667",
    "lng": "16.544745",
    "hours3": "",
    "featured": "",
    "features": "",
    "date": "10/17/18"
  },
  {
    "id": "16",
    "name": "K. Dubica",
    "category": "Red",
    "state": "Bosnia and Herzegovina",
    "postal": "79240", 
    "address": "Davidov trg",
    "address2": "",
    "city": "K. Dubica",
    "phone": "052/425-171",
    "hours1": "Mon to Fri 7:00-20:00",
    "hours2": "Sat 7:00-16:00",
    "lat": "45.183791",
    "lng": "16.806344",
    "hours3": "",
    "featured": "",
    "features": "",
    "date": "10/17/18"
  },
  {
    "id": "17",
    "name": "Doboj",
    "category": "Red",
    "state": "Bosnia and Herzegovina",
    "postal": "74101", 
    "address": "Svetog Save br.4",
    "address2": "",
    "city": "Doboj",
    "phone": "053/222-530",
    "hours1": "Mon to Fri 7:00-20:00",
    "hours2": "Sat 7:00-18:00",
    "lat": "44.732831",
    "lng": "18.084180",
    "hours3": "",
    "featured": "",
    "features": "",
    "date": "10/17/18"
  },
  {
    "id": "18",
    "name": "Teslić",
    "category": "Red",
    "state": "Bosnia and Herzegovina",
    "postal": "74270", 
    "address": "Karađorđeva bb",
    "address2": "",
    "city": "Teslić",
    "phone": "053/410-071",
    "hours1": "Mon to Fri 7:00-20:00",
    "hours2": "Sat 7:00-16:00",
    "lat": "44.605394",
    "lng": "17.859625",
    "hours3": "",
    "featured": "",
    "features": "",
    "date": "10/17/18"
  },
  {
    "id": "19",
    "name": "Derventa",
    "category": "Red",
    "state": "Bosnia and Herzegovina",
    "postal": "74400", 
    "address": "Cara Lazara bb",
    "address2": "",
    "city": "Derventa",
    "phone": "053/310-102",
    "hours1": "Mon to Fri 7:00-18:00",
    "hours2": "Sat 7:00-14:00",
    "lat": "44.977713",
    "lng": "17.905467",
    "hours3": "",
    "featured": "",
    "features": "",
    "date": "10/17/18"
  },
  {
    "id": "20",
    "name": "Brod",
    "category": "Red",
    "state": "Bosnia and Herzegovina",
    "postal": "74450", 
    "address": "Svetog Save bb",
    "address2": "",
    "city": "Brod",
    "phone": "053/620-072",
    "hours1": "Mon to Fri 7:00-18:00",
    "hours2": "Sat 7:00-14:00",
    "lat": "45.147049",
    "lng": "17.997366",
    "hours3": "",
    "featured": "",
    "features": "",
    "date": "10/17/18"
  },
  {
    "id": "21",
    "name": "Modriča",
    "category": "Red",
    "state": "Bosnia and Herzegovina",
    "postal": "74480", 
    "address": "Karađorđeva br. 1",
    "address2": "",
    "city": "Modriča",
    "phone": "053/820-032",
    "hours1": "Mon to Fri 7:00-20:00",
    "hours2": "Sat 7:00-16:00",
    "lat": "44.954281",
    "lng": "18.300790",
    "hours3": "",
    "featured": "",
    "features": "",
    "date": "10/17/18"
  },
  {
    "id": "22",
    "name": "Brčko",
    "category": "Red",
    "state": "Bosnia and Herzegovina",
    "postal": "76101", 
    "address": "Bosne Srebrene 11",
    "address2": "",
    "city": "Brčko",
    "phone": "049/212-503",
    "hours1": "Mon to Fri 7:00-20:00",
    "hours2": "Sat 7:00-18:00",
    "lat": "44.876245",
    "lng": "18.810492",
    "hours3": "",
    "featured": "",
    "features": "",
    "date": "10/17/18"
  },
  {
    "id": "23",
    "name": "Pelagićevo",
    "category": "Red",
    "state": "Bosnia and Herzegovina",
    "postal": "76256", 
    "address": "ulica Poginulih boraca otadžbinskog rata",
    "address2": "",
    "city": "Pelagićevo",
    "phone": "054/810-266",
    "hours1": "Mon to Fri 8:00- 15:00",
    "hours2": "Sat 8:00-13:00",
    "lat": "44.906020",
    "lng": "18.608615",
    "hours3": "",
    "featured": "",
    "features": "",
    "date": "10/17/18"
  },
  {
    "id": "24",
    "name": "Bijelјina",
    "category": "Red",
    "state": "Bosnia and Herzegovina",
    "postal": "76300", 
    "address": "Kneginje Milice 14",
    "address2": "",
    "city": "Bijelјina",
    "phone": "055/210-494",
    "hours1": "Mon to Fri 7:00-20:00",
    "hours2": "Sat 7:00-18:00",
    "lat": "44.758004",
    "lng": "19.216750",
    "hours3": "",
    "featured": "",
    "features": "",
    "date": "10/17/18"
  },
  {
    "id": "25",
    "name": "Janja",
    "category": "Red",
    "state": "Bosnia and Herzegovina",
    "postal": "76316", 
    "address": "Kralja Petra Karađorđevića 1",
    "address2": "",
    "city": "Janja",
    "phone": "055/545-211",
    "hours1": "Mon to Fri 7:00-17:00",
    "hours2": "Sat 7:00-15:00",
    "lat": "44.668870",
    "lng": "19.246898",
    "hours3": "",
    "featured": "",
    "features": "",
    "date": "10/17/18"
  },
  {
    "id": "26",
    "name": "Uglјevik",
    "category": "Red",
    "state": "Bosnia and Herzegovina",
    "postal": "76330", 
    "address": "Trg Đenerala Draže 3",
    "address2": "",
    "city": "Uglјevik",
    "phone": "055/773-910",
    "hours1": "Mon to Fri 7:00-18:00",
    "hours2": "Sat 7:00-15:00",
    "lat": "44.693510",
    "lng": "18.993112",
    "hours3": "",
    "featured": "",
    "features": "",
    "date": "10/17/18"
  },
  {
    "id": "27",
    "name": "Zvornik",
    "category": "Red",
    "state": "Bosnia and Herzegovina",
    "postal": "75400", 
    "address": "Svetog Save bb",
    "address2": "",
    "city": "Zvornik",
    "phone": "056/211-379",
    "hours1": "Mon to Fri 7:00-20:00",
    "hours2": "Sat 7:00-15:00",
    "lat": "44.383529",
    "lng": "19.102914",
    "hours3": "",
    "featured": "",
    "features": "",
    "date": "10/17/18"
  },
  {
    "id": "28",
    "name": "Vlasenica",
    "category": "Red",
    "state": "Bosnia and Herzegovina",
    "postal": "75440", 
    "address": "Svetosavska 24",
    "address2": "",
    "city": "Vlasenica",
    "phone": "056/710-021",
    "hours1": "Mon to Fri 7:00-17:00",
    "hours2": "Sat 7:00-13:00",
    "lat": "44.183317",
    "lng": "18.940398",
    "hours3": "",
    "featured": "",
    "features": "",
    "date": "10/17/18"
  },
  {
    "id": "29",
    "name": "Milići",
    "category": "Red",
    "state": "Bosnia and Herzegovina",
    "postal": "75446", 
    "address": "Trg rudara 10",
    "address2": "",
    "city": "Milići",
    "phone": "056/745-132",
    "hours1": "Mon to Fri 8:00-16:00",
    "hours2": "Sat 8:00-13:00",
    "lat": "44.169423",
    "lng": "19.079417",
    "hours3": "",
    "featured": "",
    "features": "",
    "date": "10/17/18"
  },
  {
    "id": "30",
    "name": "Šekovići",
    "category": "Red",
    "state": "Bosnia and Herzegovina",
    "postal": "75450", 
    "address": "Draže Mihajlovića bb",
    "address2": "",
    "city": "Šekovići",
    "phone": "056/653-222",
    "hours1": "Mon to Fri 7:00-15:00",
    "hours2": "Sat 7:00-13:00",
    "lat": "44.296830",
    "lng": "18.853646",
    "hours3": "",
    "featured": "",
    "features": "",
    "date": "10/17/18"
  },
  {
    "id": "31",
    "name": "I. Sarajevo",
    "category": "Red",
    "state": "Bosnia and Herzegovina",
    "postal": "71123", 
    "address": "Zmaj Jovina 9",
    "address2": "",
    "city": "I. Sarajevo",
    "phone": "057/405-116",
    "hours1": "Mon to Fri 7:00-20:00",
    "hours2": "Sat 7:00-18:00",
    "lat": "43.820804",
    "lng": "18.360245",
    "hours3": "",
    "featured": "",
    "features": "",
    "date": "10/17/18"
  },
  {
    "id": "32",
    "name": "Kula",
    "category": "Red",
    "state": "Bosnia and Herzegovina",
    "postal": "71216", 
    "address": "Otadžbinska 5",
    "address2": "",
    "city": "Kula",
    "phone": "057/310-790",
    "hours1": "Mon to Fri 8:00-15:00",
    "hours2": "Sat 8:00- 13:00",
    "lat": "43.814661",
    "lng": "18.354292",
    "hours3": "",
    "featured": "",
    "features": "",
    "date": "10/17/18"
  },
  {
    "id": "33",
    "name": "Sokolac",
    "category": "Red",
    "state": "Bosnia and Herzegovina",
    "postal": "71350", 
    "address": "Cara Lazara bb",
    "address2": "",
    "city": "Sokolac",
    "phone": "057/448-752",
    "hours1": "Mon to Fri 7:00-20:00",
    "hours2": "Sat 7:00-16:00",
    "lat": "43.934154",
    "lng": "18.792983",
    "hours3": "",
    "featured": "",
    "features": "",
    "date": "10/17/18"
  },
  {
    "id": "35",
    "name": "Han Pijesak",
    "category": "Red",
    "state": "Bosnia and Herzegovina",
    "postal": "71360", 
    "address": "Srpske vojske bb",
    "address2": "",
    "city": "Han Pijesak",
    "phone": "057/555-151",
    "hours1": "Mon to Fri 8:00-15:00",
    "hours2": "Sat 8:00-13:00",
    "lat": "44.080409",
    "lng": "18.952382",
    "hours3": "",
    "featured": "",
    "features": "",
    "date": "10/17/18"
  },
  {
    "id": "35",
    "name": "Pale",
    "category": "Red",
    "state": "Bosnia and Herzegovina",
    "postal": "71420", 
    "address": "Trg Republike bb",
    "address2": "",
    "city": "Pale",
    "phone": "057/405-117",
    "hours1": "Mon to Fri 7:00-20:00",
    "hours2": "Sat 7:00-16:00",
    "lat": "43.814726",
    "lng": "18.570016",
    "hours3": "",
    "featured": "",
    "features": "",
    "date": "10/17/18"
  },
  {
    "id": "36",
    "name": "Rogatica",
    "category": "Red",
    "state": "Bosnia and Herzegovina",
    "postal": "73220", 
    "address": "Srpske sloge bb",
    "address2": "",
    "city": "Rogatica",
    "phone": "058/420-522",
    "hours1": "Mon to Fri 7:00-20:00",
    "hours2": "Sat 7:00-16:00",
    "lat": "43.801084",
    "lng": "19.001959",
    "hours3": "",
    "featured": "",
    "features": "",
    "date": "10/17/18"
  },
  {
    "id": "37",
    "name": "Foča",
    "category": "Red",
    "state": "Bosnia and Herzegovina",
    "postal": "73301", 
    "address": "Kralja Petra I Karađorđevića bb",
    "address2": "",
    "city": "Foča",
    "phone": "058/220-452",
    "hours1": "Mon to Fri 7:00-20:00",
    "hours2": "Sat 7:00-18:00",
    "lat": "43.506488",
    "lng": "18.774964",
    "hours3": "",
    "featured": "",
    "features": "",
    "date": "10/17/18"
  },
  {
    "id": "38",
    "name": "Nevesinje",
    "category": "Red",
    "state": "Bosnia and Herzegovina",
    "postal": "88280", 
    "address": "Miloša Obilića br.6",
    "address2": "",
    "city": "Nevesinje",
    "phone": "059/610-040",
    "hours1": "Mon to Fri 7:00-17:00",
    "hours2": "Sat 7:00-15:00",
    "lat": "43.258832",
    "lng": "18.113442",
    "hours3": "",
    "featured": "",
    "features": "",
    "date": "10/17/18"
  },
  {
    "id": "39",
    "name": "Ljubinje",
    "category": "Red",
    "state": "Bosnia and Herzegovina",
    "postal": "88380", 
    "address": "Svetosavska br.3",
    "address2": "",
    "city": "Ljubinje",
    "phone": "059/630-040",
    "hours1": "Mon to Fri 7:00-17:00",
    "hours2": "Sat 7:00-15:00",
    "lat": "42.951866",
    "lng": "18.086128",
    "hours3": "",
    "featured": "",
    "features": "",
    "date": "10/17/18"
  },
  {
    "id": "40",
    "name": "Trebinje",
    "category": "Red",
    "state": "Bosnia and Herzegovina",
    "postal": "89101", 
    "address": "Srpska br.2",
    "address2": "",
    "city": "Trebinje",
    "phone": "059/279-008",
    "hours1": "Mon to Fri 7:00-20:00",
    "hours2": "Sat 7:00-18:00",
    "lat": "42.711346",
    "lng": "18.350876",
    "hours3": "",
    "featured": "",
    "features": "",
    "date": "10/17/18"
  },
  {
    "id": "41",
    "name": "Bileća",
    "category": "Red",
    "state": "Bosnia and Herzegovina",
    "postal": "89230", 
    "address": "Kralja Aleksandra br.26",
    "address2": "",
    "city": "Bileća",
    "phone": "059/380-040",
    "hours1": "Mon to Fri 7:00-20:00",
    "hours2": "Sat 7:00-16:00",
    "lat": "42.874152",
    "lng": "18.427541",
    "hours3": "",
    "featured": "",
    "features": "",
    "date": "10/17/18"
  },
  {
    "id": "42",
    "name": "Gacko",
    "category": "Red",
    "state": "Bosnia and Herzegovina",
    "postal": "89240", 
    "address": "Solunskih dobrovoljaca br.3",
    "address2": "",
    "city": "Gacko",
    "phone": "059/470-110",
    "hours1": "Mon to Fri 7:00-17:00",
    "hours2": "Sat 7:00-15:00",
    "lat": "43.166121",
    "lng": "18.535390",
    "hours3": "",
    "featured": "",
    "features": "",
    "date": "10/17/18"
  },
  {
    "id": "43",
    "name": "Prnjavor",
    "category": "Red",
    "state": "Bosnia and Herzegovina",
    "postal": "78430", 
    "address": "Svetog Save 21",
    "address2": "",
    "city": "Prnjavor",
    "phone": "051/663-327",
    "hours1": "Mon to Fri 7:00-20:00",
    "hours2": "Sat 7:00-14:00",
    "lat": "44.8701079",
    "lng": "17.6643726",
    "hours3": "",
    "featured": "",
    "features": "",
    "date": "10/17/18"
  },
  {
    "id": "44",
    "name": "Bratunac",
    "category": "Blue",
    "state": "Bosnia and Herzegovina",
    "postal": "75420", 
    "address": "Trg Miloša Obilića",
    "address2": "",
    "city": "Bratunac",
    "phone": "056/420-051",
    "hours1": "Mon to Fri 7:00-16:00",
    "hours2": "Sat 8:00- 13:00",
    "lat": "44.1842562",
    "lng": "19.3285453",
    "hours3": "",
    "featured": "",
    "features": "",
    "date": "10/17/18"
  },
  {
    "id": "45",
    "name": "Čelinac",
    "category": "Red",
    "state": "Bosnia and Herzegovina",
    "postal": "78240", 
    "address": "Vidovdanska bb",
    "address2": "",
    "city": "Čelinac",
    "phone": "051/241-541",
    "hours1": "Mon to Fri 7:00-17:00",
    "hours2": "Sat 7:00-14:00",
    "lat": "44.7246903",
    "lng": "17.3220746",
    "hours3": "",
    "featured": "",
    "features": "",
    "date": "10/17/18"
  },
  {
    "id": "46",
    "name": "Banja Luka",
    "category": "Red",
    "state": "Bosnia and Herzegovina",
    "postal": "78109", 
    "address": "Dragiše Vasića 55",
    "address2": "",
    "city": "Banja Luka",
    "phone": "051/227-760",
    "hours1": "Mon to Fri 7:00-20:00",
    "hours2": "Sat 7:00-14:00",
    "lat": "44.779274",
    "lng": "17.1925197",
    "hours3": "",
    "featured": "",
    "features": "",
    "date": "10/17/18"
  }
]